{
  "type": "FeatureCollection",
  "name": "hospitales_poblacion_alta_2021_proyectados",
  "crs": {
    "type": "name",
    "properties": {
      "name": "urn:ogc:def:crs:OGC:1.3:CRS84"
    }
  },
  "features": [
    {
      "type": "Feature",
      "properties": {
        "NOMBRE": "HOSPITAL DR. BLANCO CERVANTES",
        "TELEFONO": "2257-8122 | 2256-2573",
        "PROVINCIA": "SAN JOSE",
        "CANTON": "SAN JOSE",
        "DISTRITO": "HOSPITAL"
      },
      "geometry": {
        "type": "Point",
        "coordinates": [-84.051209, 9.930849]
      }
    },
    {
      "type": "Feature",
      "properties": {
        "NOMBRE": "HOSPITAL CARLOS LUIS VALVERDE VEGA SAN RAMON",
        "TELEFONO": "2445-5388 / 2445-5825 / 2445-5008",
        "PROVINCIA": "ALAJUELA",
        "CANTON": "SAN RAMON",
        "DISTRITO": "SAN RAMON"
      },
      "geometry": {
        "type": "Point",
        "coordinates": [-84.564873, 10.093809]
      }
    },
    {
      "type": "Feature",
      "properties": {
        "NOMBRE": "HOSPITAL DR. ENRIQUE BALTODANO LIBERIA",
        "TELEFONO": "2690-9700 | 2690-2300",
        "PROVINCIA": "GUANACASTE",
        "CANTON": "LIBERIA",
        "DISTRITO": "LIBERIA"
      },
      "geometry": {
        "type": "Point",
        "coordinates": [-85.435021, 10.616436]
      }
    },
    {
      "type": "Feature",
      "properties": {
        "NOMBRE": "HOSPITAL DR. FERNANDO ESCALANTE PRADILLA",
        "TELEFONO": "2771-3122 | 2771-0319",
        "PROVINCIA": "SAN JOSE",
        "CANTON": "PEREZ ZELEDON",
        "DISTRITO": "SAN ISIDRO"
      },
      "geometry": {
        "type": "Point",
        "coordinates": [-83.750636, 9.342270]
      }
    },
    {
      "type": "Feature",
      "properties": {
        "NOMBRE": "HOSPITAL DE GOLFITO",
        "TELEFONO": "2775-1001 | 2775-7900",
        "PROVINCIA": "PUNTARENAS",
        "CANTON": "GOLFITO",
        "DISTRITO": "GOLFITO"
      },
      "geometry": {
        "type": "Point",
        "coordinates": [-83.041098, 8.634417]
      }
    },
    {
      "type": "Feature",
      "properties": {
        "NOMBRE": "HOSPITAL DE GUAPILES",
        "TELEFONO": "2710-6801/ 2710-6077",
        "PROVINCIA": "LIMON",
        "CANTON": "POCOCI",
        "DISTRITO": "GUAPILES"
      },
      "geometry": {
        "type": "Point",
        "coordinates": [-83.435883, 10.227551]
      }
    },
    {
      "type": "Feature",
      "properties": {
        "NOMBRE": "HOSPITAL EVA CARIT, HOSPITAL DE LAS MUJERES",
        "TELEFONO": "2257-9111 / 2226-7999",
        "PROVINCIA": "SAN JOSE",
        "CANTON": "SAN JOSE",
        "DISTRITO": "HOSPITAL"
      },
      "geometry": {
        "type": "Point",
        "coordinates": [-84.048223, 9.930420]
      }
    },
    {
      "type": "Feature",
      "properties": {
        "NOMBRE": "HOSPITAL DR. MAX PERALTA",
        "TELEFONO": "2550-1999 / 2550-1998 / 2551-0300",
        "PROVINCIA": "CARTAGO",
        "CANTON": "CARTAGO",
        "DISTRITO": "OCCIDENTAL"
      },
      "geometry": {
        "type": "Point",
        "coordinates": [-83.914471, 9.865708]
      }
    },
    {
      "type": "Feature",
      "properties": {
        "NOMBRE": "HOSPITAL DR. MAX TERAN VALLS QUEPOS",
        "TELEFONO": "2777-0922 / 2777-1397/2777-1122",
        "PROVINCIA": "PUNTARENAS",
        "CANTON": "AGUIRRE",
        "DISTRITO": "QUEPOS"
      },
      "geometry": {
        "type": "Point",
        "coordinates": [-84.162279, 9.399249]
      }
    },
    {
      "type": "Feature",
      "properties": {
        "NOMBRE": "HOSPITAL MEXICO",
        "TELEFONO": "2242-6700",
        "PROVINCIA": "SAN JOSE",
        "CANTON": "SAN JOSE",
        "DISTRITO": "URUCA"
      },
      "geometry": {
        "type": "Point",
        "coordinates": [-84.066204, 9.934702]
      }
    },
    {
      "type": "Feature",
      "properties": {
        "NOMBRE": "HOSPITAL MONSEÑOR SANABRIA PUNTARENAS",
        "TELEFONO": "2663-0033 / 2663-0133 / 2663-1199",
        "PROVINCIA": "PUNTARENAS",
        "CANTON": "PUNTARENAS",
        "DISTRITO": "EL ROBLE"
      },
      "geometry": {
        "type": "Point",
        "coordinates": [-84.825002, 9.935384]
      }
    },
    {
      "type": "Feature",
      "properties": {
        "NOMBRE": "HOSPITAL NACIONAL DE NIÑOS DR. CARLOS SAENZ HERRERA",
        "TELEFONO": "2222-9311 | 2222-0122",
        "PROVINCIA": "SAN JOSE",
        "CANTON": "SAN JOSE",
        "DISTRITO": "HOSPITAL"
      },
      "geometry": {
        "type": "Point",
        "coordinates": [-84.045902, 9.930949]
      }
    },
    {
      "type": "Feature",
      "properties": {
        "NOMBRE": "HOSPITAL NACIONAL PSIQUIATRICO MANUEL ANTONIO CHAPUI",
        "TELEFONO": "2232-2155 /2231-6269 / 2232-6899",
        "PROVINCIA": "SAN JOSE",
        "CANTON": "SAN JOSE",
        "DISTRITO": "PAVAS"
      },
      "geometry": {
        "type": "Point",
        "coordinates": [-84.071118, 9.933588]
      }
    },
    {
      "type": "Feature",
      "properties": {
        "NOMBRE": "HOSPITAL NACIONAL DE REHABILITACION DR. HUMBERTO ARAYA ROJAS (CENARE)",
        "TELEFONO": "2232-8233 / 2232-1389 / 2220-1336",
        "PROVINCIA": "SAN JOSE",
        "CANTON": "SAN JOSE",
        "DISTRITO": "URUCA"
      },
      "geometry": {
        "type": "Point",
        "coordinates": [-84.069855, 9.934682]
      }
    },
    {
      "type": "Feature",
      "properties": {
        "NOMBRE": "HOSPITAL DR. RAFAEL ANGEL CALDERON GUARDIA",
        "TELEFONO": "2257-7922 / 2224-5300",
        "PROVINCIA": "SAN JOSE",
        "CANTON": "SAN JOSE",
        "DISTRITO": "HOSPITAL"
      },
      "geometry": {
        "type": "Point",
        "coordinates": [-84.051843, 9.925546]
      }
    },
    {
      "type": "Feature",
      "properties": {
        "NOMBRE": "HOSPITAL DE TIRRA",
        "TELEFONO": "2573-2550",
        "PROVINCIA": "CARTAGO",
        "CANTON": "TIRRA",
        "DISTRITO": "TIRRA"
      },
      "geometry": {
        "type": "Point",
        "coordinates": [-83.684305, 9.894298]
      }
    },
    {
      "type": "Feature",
      "properties": {
        "NOMBRE": "HOSPITAL NACIONAL DE CANCER",
        "TELEFONO": "2522-0600 / 2522-0712",
        "PROVINCIA": "SAN JOSE",
        "CANTON": "SAN JOSE",
        "DISTRITO": "HOSPITAL"
      },
      "geometry": {
        "type": "Point",
        "coordinates": [-84.043294, 9.930361]
      }
    },
    {
      "type": "Feature",
      "properties": {
        "NOMBRE": "HOSPITAL SAN JUAN DE DIOS",
        "TELEFONO": "2211-8875 / 2211-8850",
        "PROVINCIA": "SAN JOSE",
        "CANTON": "SAN JOSE",
        "DISTRITO": "HOSPITAL"
      },
      "geometry": {
        "type": "Point",
        "coordinates": [-84.054295, 9.933361]
      }
    }
  ]
}


